,City,Latitude,Longitude,Max Temperature,Humidity,Clouds,Wind,Country,Date
0,buraydah,26.326,43.975,97.25,9,0,10.02,SA,1624218890
1,vardo,70.3705,31.1107,49.75,93,75,5.75,NO,1624218435
2,punta arenas,-53.15,-70.9167,39.31,81,0,13.8,CL,1624218451
3,rikitea,-23.1203,-134.9692,75.42,80,7,18.88,PF,1624218339
4,tuatapere,-46.1333,167.6833,39.38,95,33,3.67,NZ,1624218485
5,chokurdakh,70.6333,147.9167,58.95,49,3,9.73,RU,1624218489
6,saint anthony,45.0205,-93.218,74.28,88,90,4.61,US,1624218891
7,yellowknife,62.456,-114.3525,55.92,47,20,10.36,CA,1624218439
8,atuona,-9.8,-139.0333,79.57,73,22,18.92,PF,1624218431
9,lamu,-2.2717,40.902,79.02,82,16,17.05,KE,1624218892
10,uige,-7.6087,15.0613,67.23,44,19,2.17,AO,1624218892
11,puerto ayora,-0.7393,-90.3518,82.36,81,55,7.0,EC,1624218244
12,georgetown,5.4112,100.3354,79.9,87,40,5.01,MY,1624218464
13,bluff,-46.6,168.3333,43.05,84,8,6.38,NZ,1624218432
14,longyearbyen,78.2186,15.6401,39.04,75,75,16.11,SJ,1624218551
15,kashary,49.04,41.0056,72.54,47,38,12.62,RU,1624218893
16,klaksvik,62.2266,-6.589,47.32,77,53,4.47,FO,1624218481
17,airai,-8.9266,125.4092,55.53,92,34,3.27,TL,1624218534
18,geraldton,-28.7667,114.6,54.01,82,75,16.11,AU,1624218527
19,alofi,-19.0595,-169.9187,67.89,100,85,1.14,NU,1624218634
20,forestville,38.8451,-76.875,94.26,56,1,1.99,US,1624218895
21,ushuaia,-54.8,-68.3,44.26,53,40,18.41,AR,1624218452
22,busselton,-33.65,115.3333,49.05,77,99,20.78,AU,1624218430
23,port elizabeth,-33.918,25.5701,71.89,33,20,9.22,ZA,1624218435
24,castro,-24.7911,-50.0119,56.82,81,77,4.38,BR,1624218502
25,new norfolk,-42.7826,147.0587,41.67,88,16,2.77,AU,1624218461
26,hilo,19.7297,-155.09,80.8,65,20,0.0,US,1624218443
27,esperance,-33.8667,121.9,51.64,79,100,9.31,AU,1624218597
28,lebu,-37.6167,-73.65,53.49,73,100,15.64,CL,1624218476
29,olga,43.7444,135.2892,46.26,88,95,6.22,RU,1624218896
30,alenquer,-1.9417,-54.7383,86.34,69,57,3.2,BR,1624218897
31,bambous virieux,-20.3428,57.7575,71.85,68,40,18.41,MU,1624218457
32,salima,-13.7804,34.4587,65.5,68,13,5.64,MW,1624218897
33,saint-philippe,-21.3585,55.7679,69.35,67,99,13.38,RE,1624218508
34,albany,42.6001,-73.9662,87.13,54,1,6.98,US,1624218471
35,lavrentiya,65.5833,-171.0,48.74,71,18,3.74,RU,1624218438
36,igarka,67.4667,86.5833,46.4,96,100,3.11,RU,1624218898
37,grand gaube,-20.0064,57.6608,72.0,72,79,5.01,MU,1624218549
38,qaanaaq,77.484,-69.3632,39.36,58,10,2.62,GL,1624218471
39,souillac,-20.5167,57.5167,71.98,68,40,18.41,MU,1624218484
40,tombouctou,20.0,-3.0,99.0,13,1,6.13,ML,1624218899
41,jiuquan,39.7432,98.5174,72.52,21,0,8.19,CN,1624218900
42,kaitangata,-46.2817,169.8464,39.56,92,13,2.59,NZ,1624218568
43,brookings,44.3114,-96.7984,72.01,60,90,31.07,US,1624218802
44,katsuura,35.1333,140.3,72.19,81,74,7.49,JP,1624218583
45,lucea,18.451,-78.1736,89.46,73,44,9.51,JM,1624218901
46,ulladulla,-35.35,150.4667,50.9,86,76,7.54,AU,1624218469
47,paita,-5.0892,-81.1144,77.56,73,88,17.65,PE,1624218901
48,biscarrosse,44.3945,-1.1672,70.03,73,0,3.44,FR,1624218902
49,mandalay,21.9747,96.0836,78.22,74,64,7.74,MM,1624218903
50,walvis bay,-22.9575,14.5053,75.09,21,0,4.61,NA,1624218661
51,mahebourg,-20.4081,57.7,71.89,68,40,18.41,MU,1624218460
52,cape town,-33.9258,18.4232,70.09,12,0,5.75,ZA,1624218408
53,jamestown,42.097,-79.2353,84.29,73,75,13.8,US,1624218434
54,saint george,37.1041,-113.5841,111.63,11,1,1.01,US,1624218311
55,waingapu,-9.6567,120.2641,75.97,88,25,7.58,ID,1624218904
56,upernavik,72.7868,-56.1549,36.23,72,24,9.71,GL,1624218467
57,vaini,-21.2,-175.2,66.36,94,40,0.0,TO,1624218444
58,shumskiy,54.8318,99.1328,56.71,84,16,1.57,RU,1624218905
59,touros,-5.1989,-35.4608,83.3,72,89,11.54,BR,1624218595
60,kodiak,57.79,-152.4072,47.71,93,90,20.71,US,1624218434
61,narsaq,60.9167,-46.05,48.42,95,100,2.62,GL,1624218510
62,port alfred,-33.5906,26.891,72.0,37,79,11.05,ZA,1624218477
63,bereda,43.2686,-7.5406,57.42,100,100,8.52,ES,1624218906
64,iquitos,-3.7481,-73.2472,86.04,70,75,4.61,PE,1624218850
65,bombay,19.0144,72.8479,78.78,89,90,8.05,IN,1624218679
66,fortuna,40.5982,-124.1573,65.32,72,1,10.36,US,1624218633
67,san jose,37.3394,-121.895,94.51,43,1,9.22,US,1624218899
68,suntar,62.1444,117.6319,62.85,67,82,3.85,RU,1624218592
69,gravdal,68.1214,13.5031,51.48,83,100,16.87,NO,1624218604
70,roald,62.5833,6.1333,60.17,82,75,9.22,NO,1624218525
71,avarua,-21.2078,-159.775,73.45,64,20,5.75,CK,1624218502
72,taonan,45.3333,122.7833,59.0,87,41,6.82,CN,1624218908
73,leshukonskoye,64.8989,45.7622,52.74,66,100,10.22,RU,1624218560
74,dunedin,-45.8742,170.5036,42.8,89,37,1.01,NZ,1624218643
75,tessalit,20.1986,1.0114,96.96,11,71,2.55,ML,1624218908
76,ixtepec,16.5786,-95.1022,89.44,59,75,11.72,MX,1624218909
77,kapaa,22.0752,-159.319,81.19,75,75,4.0,US,1624218448
78,mataura,-46.1927,168.8643,36.03,98,36,2.64,NZ,1624218433
79,berlevag,70.8578,29.0864,49.8,87,20,10.36,NO,1624218529
80,arraial do cabo,-22.9661,-42.0278,84.16,61,0,5.75,BR,1624218467
81,nikolskoye,59.7035,30.7861,76.89,68,0,3.44,RU,1624218454
82,flic en flac,-20.2742,57.3631,72.16,68,76,20.49,MU,1624218910
83,hetauda,27.4284,85.0322,79.95,98,100,3.65,NP,1624218910
84,caravelas,-17.7125,-39.2481,74.03,71,41,7.23,BR,1624218598
85,torbay,47.6666,-52.7314,59.29,97,90,9.22,CA,1624218459
86,laguna,38.421,-121.4238,106.65,26,1,5.01,US,1624218470
87,hermanus,-34.4187,19.2345,66.42,51,100,7.87,ZA,1624218431
88,aktas,49.7789,72.9608,55.15,95,84,15.14,KZ,1624218911
89,butaritari,3.0707,172.7902,81.45,75,30,6.6,KI,1624218448
90,san policarpo,12.1791,125.5072,78.17,86,100,5.86,PH,1624218590
91,adrar,20.5022,-10.0711,95.4,11,59,11.36,MR,1624218638
92,cabo san lucas,22.8909,-109.9124,96.51,79,89,14.36,MX,1624218579
93,nassau,40.7507,-73.5829,91.33,63,3,5.01,US,1624218912
94,thompson,55.7435,-97.8558,51.96,50,75,11.5,CA,1624218312
95,sioux lookout,50.1001,-91.917,64.47,63,75,10.36,CA,1624218153
96,puerto escondido,15.85,-97.0667,90.43,51,40,5.75,MX,1624218510
97,muros,42.7762,-9.0603,60.24,88,100,19.89,ES,1624218528
98,hirara,24.8,125.2833,84.13,78,100,3.13,JP,1624218914
99,ponta do sol,32.6667,-17.1,72.72,77,52,5.59,PT,1624218483
100,kajaani,64.2273,27.7285,62.65,88,0,4.61,FI,1624218914
101,padang,-0.9492,100.3543,76.19,80,99,3.15,ID,1624218562
102,mopti,14.6667,-4.0,99.43,22,78,9.8,ML,1624218915
103,mnogovershinnyy,53.9353,139.9242,58.6,61,77,0.29,RU,1624218647
104,juegang,32.3174,121.1855,70.05,76,87,4.56,CN,1624218915
105,dongobesh,-4.0667,35.3833,49.95,89,34,6.89,TZ,1624218916
106,labuhan,-6.8844,112.2051,77.29,82,96,5.06,ID,1624218916
107,steinbach,50.1667,8.5667,76.51,73,20,5.75,DE,1624218917
108,yar-sale,66.8333,70.8333,39.07,62,89,16.42,RU,1624218547
109,kutum,14.2,24.6667,80.37,39,92,7.07,SD,1624218917
110,fernie,49.5,-115.0687,67.17,38,99,2.3,CA,1624218917
111,moose factory,51.2585,-80.6094,68.0,73,90,11.5,CA,1624218918
112,itarema,-2.9248,-39.9167,80.37,74,28,16.67,BR,1624218455
113,saint-georges,12.0564,-61.7485,80.04,84,98,15.03,GD,1624218203
114,pierre,44.3683,-100.351,77.99,46,40,20.71,US,1624218305
115,xuddur,4.1213,43.8894,72.07,72,34,18.95,SO,1624218919
116,sibu,2.3,111.8167,73.71,100,40,1.99,MY,1624218919
117,maceio,-9.6658,-35.7353,80.04,78,40,4.61,BR,1624218827
118,barrow,71.2906,-156.7887,35.62,87,90,12.66,US,1624218443
119,puerto baquerizo moreno,-0.9,-89.6,79.79,69,75,16.11,EC,1624218920
120,paranhos,-23.8928,-55.4311,62.67,64,100,1.88,BR,1624218920
121,hofn,64.2539,-15.2082,46.54,74,11,5.06,IS,1624218493
122,tuktoyaktuk,69.4541,-133.0374,55.4,88,20,6.91,CA,1624218488
123,the valley,18.217,-63.0578,87.66,74,75,17.27,AI,1624218921
124,farkhor,37.4922,69.4036,77.88,31,5,2.62,TJ,1624218921
125,polunochnoye,60.8697,60.4153,41.49,66,9,4.85,RU,1624218922
126,dikson,73.5069,80.5464,32.0,84,0,5.03,RU,1624218501
127,acajutla,13.5928,-89.8275,84.52,70,100,4.68,SV,1624218922
128,vostok,46.4856,135.8833,44.13,67,98,3.53,RU,1624218535
129,zverinogolovskoye,54.4586,64.8542,55.83,42,5,22.93,RU,1624218923
130,goderich,43.7501,-81.7165,81.03,60,100,4.61,CA,1624218468
131,bredasdorp,-34.5322,20.0403,54.72,71,99,5.75,ZA,1624218442
132,norman wells,65.282,-126.8329,69.84,40,75,11.5,CA,1624218457
133,sinnamary,5.3833,-52.95,82.0,74,57,6.42,GF,1624218522
134,san quintin,30.4833,-115.95,70.23,70,3,12.84,MX,1624218554
135,mar del plata,-38.0023,-57.5575,55.87,61,0,7.0,AR,1624218387
136,skelleftea,64.7507,20.9528,59.0,61,100,1.01,SE,1624218924
137,montmagny,48.9734,2.3469,68.56,90,75,6.91,FR,1624218925
138,srednekolymsk,67.45,153.6833,61.11,47,7,16.46,RU,1624218793
139,iqaluit,63.7506,-68.5145,37.13,81,75,15.01,CA,1624218520
140,margate,51.3813,1.3862,60.31,92,70,5.99,GB,1624218758
141,yafran,32.0633,12.5286,89.4,16,0,14.81,LY,1624218926
142,lorengau,-2.0226,147.2712,79.52,83,95,8.72,PG,1624218640
143,sikasso,10.9167,-7.0,79.81,67,49,3.85,ML,1624218926
144,aklavik,68.2191,-135.0107,74.12,67,75,4.61,CA,1624218448
145,tezu,27.9167,96.1667,75.43,98,96,1.83,IN,1624218927
146,opuwo,-18.0607,13.84,61.95,36,0,8.88,NA,1624218927
147,iracoubo,5.4802,-53.2011,81.93,72,34,6.31,GF,1624218525
148,ribeira grande,38.5167,-28.7,70.2,60,20,20.71,PT,1624218516
149,saint-alexandre,44.2278,4.6214,74.1,79,70,5.17,FR,1624218928
150,pingzhuang,42.0372,119.2889,64.58,52,99,4.03,CN,1624218571
151,tiksi,71.6872,128.8694,54.14,63,76,4.7,RU,1624218474
152,oro valley,32.3909,-110.9665,109.85,14,15,8.01,US,1624218928
153,aksu,41.1231,80.2644,70.93,37,74,4.68,CN,1624218929
154,dryden,49.7833,-92.7503,59.29,88,75,6.91,CA,1624218530
155,aswan,24.0934,32.907,91.22,15,0,10.71,EG,1624218435
156,paamiut,61.994,-49.6678,40.93,96,100,9.48,GL,1624218678
157,namibe,-15.1961,12.1522,67.24,84,0,8.1,AO,1624218522
158,vila do maio,15.1333,-23.2167,75.99,81,20,17.92,CV,1624218930
159,beruwala,6.4788,79.9828,80.31,83,38,10.18,LK,1624218930
160,axim,4.8699,-2.2405,76.87,88,100,9.69,GH,1624218648
161,hithadhoo,-0.6,73.0833,83.19,73,100,11.1,MV,1624218430
162,ewa beach,21.3156,-158.0072,82.02,62,17,11.99,US,1624218918
163,carnarvon,-24.8667,113.6333,60.87,59,90,3.44,AU,1624218453
164,almaty,43.25,76.95,49.91,76,0,4.47,KZ,1624218784
165,sao borja,-28.6606,-56.0044,61.23,71,19,6.33,BR,1624218932
166,bilma,18.6853,12.9164,96.6,11,1,8.72,NE,1624218503
167,beringovskiy,63.05,179.3167,42.28,82,100,5.55,RU,1624218582
168,hobart,-42.8794,147.3294,42.03,93,14,1.01,AU,1624218436
169,nouakchott,18.0858,-15.9785,78.73,63,31,23.69,MR,1624218933
170,saskylakh,71.9167,114.0833,75.43,40,13,5.57,RU,1624218454
171,inhambane,-23.865,35.3833,67.3,71,23,8.37,MZ,1624218631
172,sitka,57.0531,-135.33,57.09,82,90,6.91,US,1624218442
173,manzanillo,20.3433,-77.1167,88.47,62,97,5.61,CU,1624218933
174,provideniya,64.3833,-173.3,59.11,58,0,6.71,RU,1624218446
175,port hawkesbury,45.6169,-61.3485,79.92,63,1,5.01,CA,1624218613
176,tak bai,6.2595,102.0546,73.38,89,99,4.7,TH,1624218934
177,quatre cocos,-20.2078,57.7625,71.71,66,91,21.77,MU,1624218612
178,vao,-22.6667,167.4833,71.56,63,100,17.87,NC,1624218510
179,changji,44.0167,87.3167,61.59,72,0,4.47,CN,1624218935
180,grindavik,63.8424,-22.4338,49.95,76,40,16.11,IS,1624218555
181,havelock,34.8791,-76.9013,86.05,80,75,18.01,US,1624218496
182,ust-nera,64.5667,143.2,65.97,53,6,5.61,RU,1624218581
183,shenjiamen,29.9576,122.298,71.31,75,100,2.93,CN,1624218586
184,camacha,33.0833,-16.3333,66.96,77,40,17.27,PT,1624218478
185,porto novo,6.4965,2.6036,78.62,89,100,10.07,BJ,1624218571
186,mecca,21.4267,39.8261,90.82,24,16,5.19,SA,1624218291
187,houma,29.5958,-90.7195,87.01,78,100,14.0,US,1624218627
188,faanui,-16.4833,-151.75,79.99,72,8,4.61,PF,1624218524
189,savannah bight,16.45,-85.85,95.05,79,87,26.24,HN,1624218937
190,atar,20.5169,-13.0499,93.43,13,2,11.16,MR,1624218475
191,boyolangu,-8.1181,111.8935,73.92,91,97,2.1,ID,1624218938
192,seoul,37.5683,126.9778,67.6,88,75,2.3,KR,1624218713
193,shimoda,34.6667,138.95,71.17,82,100,4.65,JP,1624218587
194,east london,-33.0153,27.9116,70.54,35,5,7.2,ZA,1624218462
195,bilibino,68.0546,166.4372,60.4,41,9,5.75,RU,1624218939
196,moscow,55.7522,37.6156,77.43,73,16,6.08,RU,1624218801
197,nizhnevartovsk,60.9344,76.5531,53.62,71,0,11.18,RU,1624218939
198,bengkulu,-3.8004,102.2655,74.53,88,82,4.7,ID,1624218538
199,reinosa,42.9996,-4.138,53.2,71,50,16.04,ES,1624218940
200,biak,-0.9131,122.8766,75.09,85,88,5.37,ID,1624218481
201,lompoc,34.6391,-120.4579,95.68,65,1,10.36,US,1624218495
202,pisco,-13.7,-76.2167,66.25,77,90,16.11,PE,1624218484
203,santa ana,33.7456,-117.8678,98.08,65,40,4.0,US,1624218691
204,cherskiy,68.75,161.3,64.27,40,15,14.63,RU,1624218500
205,chuy,-33.6971,-53.4616,52.02,79,49,7.38,UY,1624218941
206,port lincoln,-34.7333,135.8667,51.35,71,60,10.38,AU,1624218523
207,port blair,11.6667,92.75,82.81,78,39,12.8,IN,1624218565
208,harqalah,36.0303,10.509,95.59,57,0,12.66,TN,1624218942
209,myre,69.1036,15.9492,49.01,86,78,10.42,NO,1624218943
210,paracatu,-17.2222,-46.8747,80.44,38,53,3.11,BR,1624218943
211,mokhsogollokh,61.4681,128.9203,64.96,60,5,2.66,RU,1624218943
212,constitucion,-35.3333,-72.4167,55.51,64,100,9.24,CL,1624218617
213,edremit,39.5961,27.0244,68.92,84,0,5.61,TR,1624218944
214,talnakh,69.4865,88.3972,43.54,98,100,5.59,RU,1624218509
215,katiola,8.1333,-5.1,80.11,67,82,7.49,CI,1624218945
216,sidney,-33.8679,151.2073,52.81,93,75,4.0,AU,1624218861
217,yichun,47.7,128.9,48.94,96,99,1.59,CN,1624218946
218,jais,26.25,81.5333,84.2,73,100,4.18,IN,1624218946
219,krasnyy yar,46.5331,48.3456,73.33,33,26,9.06,RU,1624218946
220,ahipara,-35.1667,173.1667,57.96,85,59,18.68,NZ,1624218640
221,sarkand,45.41,79.9186,49.37,42,0,6.31,KZ,1624218947
222,ancud,-41.8697,-73.8203,49.53,74,67,11.86,CL,1624218534
223,canakkale,40.0833,26.8333,61.66,91,2,3.62,TR,1624218947
224,lebyazhye,55.2689,66.4947,48.85,74,100,20.49,RU,1624218948
225,priyutnoye,46.1011,43.5072,77.29,29,46,16.26,RU,1624218948
226,makakilo city,21.3469,-158.0858,80.62,62,20,7.58,US,1624218949
227,champerico,14.3,-91.9167,92.77,72,100,3.83,GT,1624218949
228,jiblah,13.9216,44.1467,70.77,63,83,1.48,YE,1624218949
229,mayo,38.8876,-76.5119,94.64,67,86,5.99,US,1624218950
230,palmer,42.1584,-72.3287,89.49,48,0,1.01,US,1624218538
231,evensk,61.95,159.2333,52.09,59,15,1.63,RU,1624218950
232,bosaso,11.2842,49.1816,93.24,41,42,13.67,SO,1624218951
233,davila,18.4726,120.5763,82.24,82,100,20.11,PH,1624218951
234,garowe,8.4054,48.4845,80.26,50,100,27.16,SO,1624218952
235,blagoyevo,63.3667,47.9167,51.78,62,24,8.55,RU,1624218952
236,kasongo,-4.45,26.6667,81.14,38,100,3.65,CD,1624218953
237,beni,0.5,29.4667,64.26,85,99,3.29,CD,1624218953
238,bagdarin,54.4333,113.6,47.66,95,36,0.94,RU,1624218953
239,san cristobal,7.7669,-72.225,77.18,92,100,5.77,VE,1624218578
240,leh,34.1667,77.5833,53.74,37,84,6.11,IN,1624218519
241,poya,-21.35,165.15,67.05,75,100,2.55,NC,1624218954
242,salalah,17.0151,54.0924,80.69,89,90,5.75,OM,1624218514
243,hualmay,-11.0964,-77.6139,67.41,78,100,11.12,PE,1624218618
244,lakheri,25.6667,76.1667,85.96,55,88,9.64,IN,1624218955
245,saint-paul,-21.0096,55.2707,69.89,90,77,3.0,RE,1624218955
246,corralillo,22.9819,-80.5856,86.83,66,85,14.85,CU,1624218955
247,gambela,8.25,34.5833,72.01,85,100,2.01,ET,1624218956
248,ntchisi,-13.5278,33.9149,52.34,70,29,3.06,MW,1624218956
249,sisimiut,66.9395,-53.6735,37.47,81,80,3.02,GL,1624218956
250,kahului,20.8947,-156.47,82.98,70,20,13.8,US,1624218289
251,pekan,3.4836,103.3996,75.31,90,100,4.9,MY,1624218957
252,jalu,29.0331,21.5482,84.07,28,0,10.36,LY,1624218478
253,mehamn,71.0357,27.8492,48.15,71,0,4.61,NO,1624218958
254,auras,26.9167,80.5167,78.75,83,93,7.92,IN,1624218958
255,abinsk,44.8726,38.1611,75.96,84,0,1.81,RU,1624218958
256,codrington,-38.2667,141.9667,41.74,91,0,6.96,AU,1624218959
257,dwarka,22.2394,68.9678,84.9,69,100,18.81,IN,1624218674
258,antalaha,-14.9003,50.2788,70.14,86,42,12.39,MG,1624218959
259,isiro,2.7739,27.616,65.98,98,47,1.12,CD,1624218960
260,luderitz,-26.6481,15.1594,70.95,34,0,4.05,NA,1624218465
261,casa branca,-21.7739,-47.0864,77.83,46,67,10.49,BR,1624218960
262,marfino,55.7028,37.3822,77.14,64,0,4.47,RU,1624218960
263,tabuk,17.4189,121.4443,76.01,72,100,2.59,PH,1624218961
264,nanortalik,60.1432,-45.2371,42.71,97,100,3.15,GL,1624218594
265,svetlaya,46.5389,138.3297,51.67,67,100,9.22,RU,1624218961
266,yulara,-25.2406,130.9889,42.64,75,96,6.91,AU,1624218597
267,russell,32.3502,-85.1999,87.08,72,83,10.94,US,1624218962
268,sueyoshi,31.65,131.0167,63.93,91,98,3.74,JP,1624218962
269,tevriz,57.509,72.4042,44.15,98,100,8.93,RU,1624218963
270,pointe-noire,-4.7761,11.8635,77.07,88,75,4.61,CG,1624218963
271,eisiskes,54.1667,25.0,75.54,92,55,7.56,LT,1624218963
272,ilulissat,69.2167,-51.1,39.22,93,90,10.36,GL,1624218538
273,verkhnevilyuysk,63.4453,120.3167,67.86,73,50,1.61,RU,1624218964
274,komsomolskiy,40.4272,71.7189,74.12,38,89,6.91,UZ,1624218964
275,guerrero negro,27.9769,-114.0611,73.65,60,10,11.79,MX,1624218608
276,velikodvorskiy,55.25,40.6678,66.69,89,100,3.65,RU,1624218965
277,praia,14.9215,-23.5087,75.74,64,20,21.85,CV,1624218966
278,mahendranagar,28.9167,80.3333,76.87,85,54,3.31,NP,1624218966
279,huarmey,-10.0681,-78.1522,68.97,78,100,11.18,PE,1624218966
280,zyryanka,65.75,150.85,56.71,60,31,14.9,RU,1624218967
281,bandarbeyla,9.4942,50.8122,76.69,81,100,31.29,SO,1624218967
282,dudinka,69.4058,86.1778,41.67,93,100,12.12,RU,1624218967
283,sabha,27.0377,14.4283,90.05,15,0,10.02,LY,1624218968
284,yarada,17.65,83.2667,82.72,83,75,2.3,IN,1624218968
285,husavik,66.0449,-17.3389,51.71,65,17,3.98,IS,1624218969
286,svetlyy,54.675,20.1347,73.45,85,0,6.64,RU,1624218521
287,sangmelima,2.9333,11.9833,71.35,87,78,1.25,CM,1624218969
288,pacajus,-4.1725,-38.4606,81.75,81,32,6.44,BR,1624218969
289,mishkino,55.3389,63.9175,55.17,43,80,23.69,RU,1624218970
290,waipawa,-41.4122,175.5153,53.02,92,100,22.01,NZ,1624218970
291,namatanai,-3.6667,152.4333,78.33,82,62,9.17,PG,1624218548
292,mutoko,-17.397,32.2268,52.68,74,45,3.71,ZW,1624218971
293,pacific grove,36.6177,-121.9166,88.81,78,20,5.99,US,1624218971
294,saint-honore,48.5334,-71.0824,81.59,42,59,8.05,CA,1624218971
295,tiznit,29.5833,-9.5,60.62,76,16,5.48,MA,1624218972
296,tres arroyos,-38.3739,-60.2798,51.57,57,11,9.37,AR,1624218972
297,klaipeda,55.7172,21.1175,80.65,83,0,13.33,LT,1624218973
298,pinheiro machado,-31.5783,-53.3811,54.77,98,100,5.23,BR,1624218973
299,pevek,69.7008,170.3133,44.1,72,15,4.79,RU,1624218502
300,lunino,53.5918,45.2271,66.38,85,0,0.83,RU,1624218974
301,egvekinot,66.3167,-179.1667,56.05,44,100,6.02,RU,1624218462
302,bayeux,-7.125,-34.9322,83.03,74,20,8.05,BR,1624218974
303,yerbogachen,61.2767,108.0108,56.48,82,37,2.06,RU,1624218974
304,manggar,-2.8833,108.2667,78.26,83,78,6.51,ID,1624218975
305,isangel,-19.55,169.2667,75.02,79,100,5.03,VU,1624218975
306,mitsamiouli,-11.3847,43.2844,77.47,72,67,9.91,KM,1624218976
307,khatanga,71.9667,102.5,64.85,63,95,11.01,RU,1624218467
308,lerwick,60.1545,-1.1494,51.8,76,100,4.0,GB,1624218976
309,casma,-41.0082,-73.1244,49.6,74,57,6.17,CL,1624218977
310,paris,48.8534,2.3488,68.7,92,75,10.36,FR,1624218933
311,horsham,51.064,-0.3272,62.49,73,75,12.66,GB,1624218977
312,deniliquin,-35.5333,144.9667,37.99,85,0,5.59,AU,1624218978
313,key largo,25.0865,-80.4473,94.98,74,100,7.72,US,1624218829
314,teknaf,20.8624,92.3058,76.01,91,96,7.7,BD,1624218978
315,naze,28.3667,129.4833,73.49,93,100,8.84,JP,1624218978
316,barra patuca,15.8,-84.2833,86.11,66,85,13.51,HN,1624218517
317,along,28.1667,94.7667,73.36,99,83,0.94,IN,1624218979
318,sompeta,18.9333,84.6,84.94,65,100,5.7,IN,1624218979
319,kiunga,-6.1219,141.2906,71.08,99,97,1.66,PG,1624218546
320,bagotville,-28.9833,153.4167,55.22,90,20,7.56,AU,1624218980
321,xining,36.6167,101.7667,54.97,62,99,3.18,CN,1624218393
322,marawi,7.9986,124.2928,68.65,91,100,3.8,PH,1624218980
323,hasaki,35.7333,140.8333,63.28,84,100,10.36,JP,1624218575
324,ostrovnoy,68.0531,39.5131,47.61,96,100,9.44,RU,1624218542
325,noumea,-22.2763,166.4572,71.01,99,100,9.08,NC,1624218459
326,manavalakurichi,8.1333,77.3,82.49,87,22,14.9,IN,1624218981
327,kanniyakumari,8.0833,77.5667,79.29,84,9,19.04,IN,1624218486
328,victoria,22.2855,114.1577,87.33,84,100,1.01,HK,1624218453
329,muravlenko,63.7898,74.523,47.5,63,47,6.8,RU,1624218982
330,dutse,11.7594,9.3392,84.04,53,63,8.43,NG,1624218983
331,zeya,53.75,127.2667,62.08,75,98,1.1,RU,1624218983
332,imeni poliny osipenko,52.4201,136.4853,54.7,70,73,2.26,RU,1624218983
333,severo-kurilsk,50.6789,156.125,44.89,84,100,7.0,RU,1624218984
334,port hardy,50.6996,-127.4199,59.18,88,75,6.91,CA,1624218369
335,dumai,1.6833,101.45,74.05,97,100,2.59,ID,1624218984
336,ntoum,0.3833,9.7833,78.57,91,68,3.96,GA,1624218985
337,baganga,7.5739,126.56,76.69,85,100,4.92,PH,1624218985
338,portland,45.5234,-122.6762,90.46,48,1,3.0,US,1624218757
339,mount gambier,-37.8333,140.7667,33.71,100,0,4.61,AU,1624218487
340,kieta,-6.2167,155.6333,78.58,83,46,3.38,PG,1624218582
341,westport,41.1415,-73.3579,90.05,52,1,1.01,US,1624218437
342,bucerias,20.75,-105.3333,83.98,76,100,10.27,MX,1624218986
343,morro bay,35.3658,-120.8499,100.74,57,21,8.01,US,1624218986
344,meulaboh,4.1363,96.1285,74.75,86,99,4.32,ID,1624218987
345,sawtell,-30.3833,153.1,60.19,75,96,12.66,AU,1624218987
346,vestmannaeyjar,63.4427,-20.2734,49.19,76,0,23.02,IS,1624218447
347,santa elena,-2.2333,-80.85,74.75,78,40,9.22,EC,1624218988
348,lagoa,39.05,-27.9833,64.96,71,4,12.91,PT,1624218497
349,clyde river,70.4692,-68.5914,39.43,75,75,8.05,CA,1624218440
350,douglas,41.3,-96.167,88.95,49,40,13.8,US,1624218988
351,derzhavinsk,51.1,66.3167,58.87,35,79,9.69,KZ,1624218989
352,dingzhou,38.5131,114.9956,66.31,23,9,6.85,CN,1624218989
353,kemijarvi,66.7131,27.4306,50.54,95,100,3.71,FI,1624218644
354,ketchikan,55.3422,-131.6461,64.87,68,40,8.05,US,1624218599
355,weifang,36.71,119.1019,74.66,33,91,6.22,CN,1624218990
356,turbat,26.0023,63.044,84.27,72,8,4.79,PK,1624218990
357,kalispell,48.1958,-114.3129,69.39,50,53,5.01,US,1624218990
358,sidlaghatta,13.3881,77.8628,69.89,77,96,9.53,IN,1624218991
359,djibo,14.1022,-1.6306,98.98,25,56,7.65,BF,1624218991
360,kuminskiy,58.6667,66.5667,47.84,96,100,18.03,RU,1624218992
361,kavaratti,10.5669,72.642,82.99,75,74,19.64,IN,1624218493
362,marzuq,14.4,46.4667,78.94,44,100,5.14,YE,1624218523
363,itaueira,-7.6033,-43.0256,91.94,29,32,8.21,BR,1624218992
364,bethel,41.3712,-73.414,88.25,61,1,8.05,US,1624218460
365,sakakah,29.9697,40.2064,90.97,12,0,9.57,SA,1624218993
366,leningradskiy,69.3833,178.4167,43.23,80,26,8.75,RU,1624218636
367,vrani,45.0383,21.4925,72.99,72,0,3.44,RO,1624218993
368,rio cuarto,-33.1307,-64.3499,55.17,54,75,21.85,AR,1624218716
369,vila velha,-20.3297,-40.2925,80.96,54,20,10.36,BR,1624218483
370,awjilah,29.1081,21.2869,82.22,34,0,10.8,LY,1624218529
371,kolda,12.8833,-14.95,94.71,24,86,4.54,SN,1624218994
372,artyom,40.4723,50.333,69.94,59,0,15.55,AZ,1624218995
373,mercedes,-34.6515,-59.4307,55.18,61,5,5.06,AR,1624218995
374,starkville,33.4504,-88.8184,89.76,58,75,5.75,US,1624218995
375,ondjiva,-17.0667,15.7333,59.31,37,0,6.44,AO,1624218996
376,orange cove,36.6244,-119.3137,104.85,31,1,6.91,US,1624218996
377,umm kaddadah,13.6017,26.6876,90.09,32,66,16.78,SD,1624218997
378,truth or consequences,33.1284,-107.2528,105.91,11,74,17.13,US,1624218997
379,tasiilaq,65.6145,-37.6368,42.96,62,100,6.22,GL,1624218433
380,palestine,31.9216,35.2033,66.34,88,0,5.21,PS,1624218997
381,usakos,-22.0,15.6,65.52,32,0,7.49,NA,1624218998
382,luanda,-8.8368,13.2343,73.0,89,14,11.95,AO,1624218896
383,avera,33.194,-82.5271,78.85,95,100,15.61,US,1624218539
384,bonnyville,54.2668,-110.735,61.92,42,6,7.78,CA,1624218998
385,loiza,18.4313,-65.8802,86.86,82,88,14.27,PR,1624218999
386,rio gallegos,-51.6226,-69.2181,42.85,70,0,17.27,AR,1624218440
387,savinka,50.0785,47.0994,72.88,44,0,9.17,RU,1624218999
388,tazovskiy,67.4667,78.7,41.41,73,100,9.73,RU,1624218512
389,victor harbor,-35.5667,138.6167,51.91,80,0,6.69,AU,1624219000
390,whitefish,48.4111,-114.3376,69.12,54,79,4.97,US,1624219001
391,hami,42.8,93.45,77.92,31,29,20.29,CN,1624219001
392,gushikawa,26.3544,127.8686,79.83,90,100,7.31,JP,1624219001
393,bay roberts,47.5999,-53.2648,59.05,92,100,5.01,CA,1624219002
394,los llanos de aridane,28.6585,-17.9182,67.75,87,20,17.27,ES,1624218449
395,yeniseysk,58.4497,92.1703,52.74,89,100,7.61,RU,1624219002
396,leopold,-38.1833,144.4667,48.63,96,75,5.99,AU,1624219003
397,wufeng,27.45,104.8333,59.41,79,100,2.1,CN,1624219003
398,kaeo,-35.1,173.7833,56.32,94,65,11.65,NZ,1624219003
399,englehart,47.8169,-79.8664,73.96,46,75,0.0,CA,1624219004
400,rjukan,59.8789,8.5941,59.04,98,100,5.1,NO,1624219004
401,pinerovka,51.562,43.0689,65.93,68,97,8.01,RU,1624219004
402,visby,57.6409,18.296,77.22,57,14,12.66,SE,1624218539
403,nazas,25.2333,-104.1333,88.88,24,75,3.78,MX,1624219005
404,snasa,64.2457,12.3778,60.21,74,100,6.93,NO,1624219006
405,upata,8.0086,-62.3989,85.41,51,97,7.85,VE,1624218647
406,plettenberg bay,-34.0527,23.3716,74.19,36,8,7.16,ZA,1624218750
407,barcelona,41.3888,2.159,78.35,77,20,1.01,ES,1624218909
408,oistins,13.0667,-59.5333,86.09,62,40,24.16,BB,1624219007
409,hambantota,6.1241,81.1185,78.73,82,28,15.03,LK,1624218460
410,hongjiang,27.11,109.9956,70.23,95,99,1.52,CN,1624218586
411,beira,-19.8436,34.8389,68.09,88,40,8.01,MZ,1624219007
412,sfantu gheorghe,45.8667,25.7833,62.92,89,36,1.48,RO,1624219008
413,la ronge,55.1001,-105.2842,52.05,46,75,12.66,CA,1624218569
414,loanda,-8.8368,13.2343,73.0,89,14,11.95,AO,1624218825
415,gat,31.61,34.7642,74.8,100,0,3.04,IL,1624219008
416,bijela,43.6086,17.9519,77.7,83,85,1.28,BA,1624219009
417,omboue,-1.5746,9.2618,75.47,85,9,9.69,GA,1624218465
418,saint-pierre,-21.3393,55.4781,69.44,72,90,10.36,RE,1624218559
419,swift current,50.2834,-107.8014,65.21,29,1,26.46,CA,1624219010
420,taltal,-25.4,-70.4833,62.04,71,48,6.8,CL,1624219010
421,warner robins,32.621,-83.5999,79.14,84,90,1.99,US,1624219010
422,eirunepe,-6.6603,-69.8736,83.71,65,92,2.53,BR,1624219011
423,hosdurga,13.7981,76.2861,71.87,82,90,9.84,IN,1624219011
424,porto seguro,-16.4497,-39.0647,77.52,69,40,3.44,BR,1624219012
425,lata,40.1629,-8.3327,62.92,81,100,7.54,PT,1624219012
426,spornoye,50.8448,37.2913,69.82,83,55,11.74,RU,1624219012
427,muromtsevo,56.3724,75.2418,48.52,98,100,3.42,RU,1624219013
428,grand-lahou,5.1367,-5.0242,77.32,86,97,11.01,CI,1624219013
429,broken hill,-31.95,141.4333,40.71,87,0,2.3,AU,1624219014
430,fairbanks,64.8378,-147.7164,70.02,56,24,3.02,US,1624219014
431,bure,10.7,37.0667,57.07,89,91,3.06,ET,1624219014
432,zhigansk,66.7697,123.3711,70.36,52,58,3.67,RU,1624218524
433,jimeta,9.2833,12.4667,75.29,89,100,5.37,NG,1624219015
434,manicore,-5.8092,-61.3003,87.75,66,20,3.44,BR,1624219015
435,george,-33.963,22.4617,78.35,24,0,17.27,ZA,1624219016
436,esmeraldas,-19.7625,-44.3139,80.71,45,62,4.03,BR,1624219016
437,storslett,69.7678,21.0247,51.17,74,38,3.83,NO,1624219017
438,kysyl-syr,63.8986,122.7617,69.69,66,66,2.68,RU,1624219017
439,kismayo,-0.3582,42.5454,76.28,81,92,14.79,SO,1624219017
440,gweta,-20.1833,25.2333,61.34,50,50,16.13,BW,1624219018
441,taoudenni,22.6783,-3.9836,103.05,9,0,8.19,ML,1624219018
442,cidreira,-30.1811,-50.2056,60.8,89,81,2.04,BR,1624218475
443,ayan,56.45,138.1667,47.3,83,53,11.61,RU,1624219019
444,swellendam,-34.0226,20.4417,53.98,33,100,11.56,ZA,1624219019
445,qasigiannguit,68.8193,-51.1922,34.34,96,100,4.41,GL,1624219020
446,cabedelo,-6.9811,-34.8339,83.07,77,10,8.99,BR,1624219020
447,tilichiki,60.4667,166.1,48.65,68,100,5.82,RU,1624219021
448,kijang,35.2442,129.2139,67.73,67,99,5.82,KR,1624219021
449,kumano,34.3442,132.5894,63.52,76,88,2.06,JP,1624219022
450,lac du bonnet,50.2536,-96.0612,62.58,39,97,18.92,CA,1624219022
451,atbasar,51.8,68.3333,54.18,48,2,10.09,KZ,1624219022
452,pedernales,18.0384,-71.744,89.11,58,100,1.92,DO,1624219023
453,ngunguru,-35.6167,174.5,56.16,86,74,12.26,NZ,1624218525
454,arlit,18.7369,7.3853,95.79,11,5,6.91,NE,1624218553
455,bol,13.4586,14.7147,84.06,57,81,10.11,TD,1624219024
456,camargo,27.6667,-105.1667,95.9,14,43,6.17,MX,1624219024
457,innisfail,-17.5333,146.0333,58.41,73,52,4.63,AU,1624219025
458,svetlogorsk,52.6333,29.7333,68.13,86,100,6.69,BY,1624218558
459,vila franca do campo,37.7167,-25.4333,68.41,71,2,9.71,PT,1624218636
460,qiongshan,20.0058,110.3542,84.18,84,0,4.47,CN,1624219025
461,guozhen,34.3659,107.359,70.83,50,76,3.78,CN,1624219026
462,agirish,61.9247,63.0231,42.85,65,15,8.86,RU,1624219026
463,tura,25.5198,90.2201,73.15,98,98,5.37,IN,1624218509
464,catuday,16.2923,119.8062,81.79,79,100,13.94,PH,1624219027
465,olafsvik,64.8945,-23.7142,46.47,70,27,13.6,IS,1624219027
466,sao filipe,14.8961,-24.4956,72.37,78,1,12.1,CV,1624218444
467,bokaro,23.7833,85.9667,80.37,81,100,4.21,IN,1624219028
468,sao joao da barra,-21.6403,-41.0511,82.49,72,2,8.72,BR,1624218447
469,cortez,37.3489,-108.5859,94.51,15,82,15.99,US,1624219028
470,ouallam,14.3188,2.0866,97.88,29,100,9.04,NE,1624219028
471,fort nelson,58.8053,-122.7002,72.99,40,40,4.61,CA,1624219029
472,coahuayana,18.7333,-103.6833,86.61,66,97,4.21,MX,1624219029
473,zhuhai,22.2769,113.5678,87.06,94,40,10.36,CN,1624219030
474,batticaloa,7.7102,81.6924,81.07,77,16,3.4,LK,1624218491
475,ossora,59.2353,163.0719,43.9,89,100,9.22,RU,1624219030
476,faya,18.3851,42.4509,77.11,18,21,5.1,SA,1624218492
477,praya,14.9215,-23.5087,75.74,64,20,21.85,CV,1624219031
478,am timan,11.0297,20.2827,88.05,41,7,2.08,TD,1624219031
479,sola,-13.8833,167.55,80.26,78,91,12.91,VU,1624218866
480,oranjemund,-28.55,16.4333,72.01,32,0,6.22,NA,1624219032
481,fallon,39.4735,-118.7774,98.42,9,1,9.22,US,1624218437
482,itapirapua,-15.8233,-50.6133,89.58,27,3,2.01,BR,1624219032
483,leticia,-4.2153,-69.9406,80.65,94,75,5.75,CO,1624219032
484,severodvinsk,64.5635,39.8302,68.11,58,100,10.65,RU,1624219033
485,ambon,-3.6954,128.1814,75.34,100,75,5.75,ID,1624218463
486,nome,64.5011,-165.4064,68.16,57,1,6.91,US,1624218507
487,taunggyi,20.7833,97.0333,61.9,91,91,4.14,MM,1624219034
488,cozumel,20.5083,-86.9458,88.0,73,75,8.01,MX,1624219034
489,xambioa,-6.4111,-48.5364,87.67,55,31,0.45,BR,1624219034
490,takaungu,-3.6837,39.8566,75.69,85,22,14.14,KE,1624219035
491,jinxiang,27.4327,120.6062,73.83,95,100,6.44,CN,1624219035
492,dicabisagan,17.0818,122.4157,80.87,78,99,3.6,PH,1624219036
493,doncaster,53.5233,-1.1369,59.45,72,20,5.75,GB,1624219036
494,crossville,35.949,-85.0269,86.29,60,49,4.0,US,1624218781
495,japura,-0.3167,102.35,72.88,89,90,2.08,ID,1624219037
496,topolobampo,25.6,-109.05,92.1,58,13,19.19,MX,1624219037
497,khorixas,-20.3667,14.9667,65.39,31,0,7.81,NA,1624218590
498,merrill,45.1805,-89.6835,69.98,60,90,3.44,US,1624218741
499,tautira,-17.7333,-149.15,78.82,78,51,10.71,PF,1624218497
500,arraias,-12.9288,-46.9437,84.94,29,1,5.59,BR,1624219038
501,port hedland,-20.3167,118.5667,64.45,68,90,6.91,AU,1624218545
502,cayenne,4.9333,-52.3333,86.04,76,20,3.0,GF,1624218572
503,naryan-mar,67.6713,53.087,50.76,69,100,8.72,RU,1624218499
504,matamoros,25.5333,-103.25,88.11,37,68,1.95,MX,1624218780
505,daru,-9.0763,143.2092,77.27,84,99,15.55,PG,1624219039
506,sao miguel do araguaia,-13.275,-50.1628,91.33,26,6,4.81,BR,1624219040
507,richards bay,-28.783,32.0377,65.21,73,0,10.56,ZA,1624218578
508,buala,-8.145,159.5921,79.47,79,96,4.45,SB,1624219040
509,tuni,17.35,82.55,84.7,63,100,6.17,IN,1624219041
510,dhidhdhoo,6.8833,73.1,82.49,75,56,16.87,MV,1624219041
511,lampa,-33.2833,-70.9,53.56,66,75,5.75,CL,1624219041
512,kommunar,59.6206,30.39,76.53,67,0,4.81,RU,1624219042
513,benton,36.3334,-94.3335,91.74,52,10,5.99,US,1624219042
514,nizhniy kuranakh,58.8353,125.4869,64.08,84,72,2.17,RU,1624219042
515,ajdabiya,30.7554,20.2263,74.55,66,0,9.73,LY,1624218607
516,tanete,-3.9443,119.7848,73.71,97,100,3.51,ID,1624219043
517,jacareacanga,-6.2222,-57.7528,84.36,60,93,0.51,BR,1624219043
518,aviles,43.5547,-5.9248,63.18,88,90,1.99,ES,1624219044
519,zhezkazgan,47.8043,67.7144,71.78,43,66,10.07,KZ,1624218464
520,pacifica,37.6138,-122.4869,93.54,77,90,5.01,US,1624219044
521,golden,39.7555,-105.2211,90.19,39,40,5.01,US,1624219045
522,araguacu,-12.9306,-49.8264,91.62,27,7,3.15,BR,1624219045
523,kattivakkam,13.2167,80.3167,86.09,78,100,11.61,IN,1624219046
524,kormilovka,55.0026,74.1028,47.95,94,11,10.02,RU,1624219046
525,ampanihy,-24.7,44.75,61.99,80,0,13.85,MG,1624219047
526,kenai,60.5544,-151.2583,58.08,80,90,8.05,US,1624218830
527,hilton head island,32.2163,-80.7526,87.98,67,90,13.8,US,1624219047
528,zharkent,44.1628,80.0,55.94,38,0,7.02,KZ,1624219048
529,spirit river,55.7833,-118.8361,72.12,44,2,2.26,CA,1624219048
530,tortoli,39.9256,9.6572,80.98,68,100,3.58,IT,1624219048
531,presidente medici,-11.1753,-61.9014,87.89,44,0,2.24,BR,1624219049
532,krasnoselkup,65.7,82.4667,42.17,93,100,14.0,RU,1624218576
533,tshikapa,-6.4167,20.8,79.18,35,93,3.53,CD,1624219049
534,ormara,25.2088,64.6357,83.37,79,100,9.22,PK,1624218451
535,los barrios,36.1848,-5.4921,73.22,81,31,9.75,ES,1624219050
536,mount isa,-20.7333,139.5,51.57,46,0,5.75,AU,1624218948
537,sur,22.5667,59.5289,87.71,60,28,11.79,OM,1624218537
538,saldanha,-33.0117,17.9442,60.85,51,64,12.28,ZA,1624219051
539,rosetta,31.4044,30.4164,75.02,73,0,4.9,EG,1624219051
540,montauban,44.0833,1.5,70.48,89,88,4.34,FR,1624219052
541,senneterre,48.3835,-77.2328,73.62,64,100,1.41,CA,1624219052
542,kishi,9.0833,3.85,74.57,86,100,8.3,NG,1624219053
543,borba,-4.3878,-59.5939,82.11,68,98,1.66,BR,1624219053
544,charleston,32.7766,-79.9309,86.34,74,40,13.0,US,1624219053
545,port moresby,-9.4431,147.1797,74.62,88,75,3.44,PG,1624218916
546,mahon,39.8885,4.2658,72.16,88,20,10.36,ES,1624219054
547,kibaya,-5.3,36.5667,52.29,91,41,4.25,TZ,1624219055
548,giraltovce,49.114,21.5173,77.32,92,18,4.21,SK,1624219055
549,honiara,-9.4333,159.95,75.51,83,34,4.07,SB,1624218557
550,whyalla,-33.0333,137.5833,37.29,93,0,6.91,AU,1624219055
