,City,Latitude,Longitude,Max Temperature,Humidity,Clouds,Wind,Country,Date
0,san patricio,28.017,-97.5169,92.12,60,16,17.65,US,1624662003
1,katsuura,35.1333,140.3,79.23,77,82,6.96,JP,1624662004
2,hobyo,5.3505,48.5268,77.27,84,97,25.46,SO,1624662004
3,linjiang,41.8069,126.9078,69.89,72,97,2.35,CN,1624662004
4,rikitea,-23.1203,-134.9692,74.26,74,11,3.53,PF,1624662005
5,hermanus,-34.4187,19.2345,57.79,76,39,24.9,ZA,1624662005
6,walvis bay,-22.9575,14.5053,60.33,54,0,9.04,NA,1624662006
7,jatai,-17.8814,-51.7144,71.37,35,23,5.5,BR,1624662007
8,san cristobal,7.7669,-72.225,69.64,88,98,3.8,VE,1624662007
9,tevaitoa,-16.7833,-151.5,81.46,76,12,16.82,PF,1624662007
10,port elizabeth,-33.918,25.5701,57.09,53,6,9.91,ZA,1624662008
11,krasnoselkup,65.7,82.4667,45.01,66,28,17.6,RU,1624662008
12,port hardy,50.6996,-127.4199,64.58,82,20,5.75,CA,1624661914
13,yellowknife,62.456,-114.3525,73.56,43,79,8.99,CA,1624662009
14,bealanana,-14.55,48.7333,55.8,97,52,3.27,MG,1624662010
15,darab,28.7519,54.5444,80.11,9,0,7.99,IR,1624662010
16,gizo,-8.103,156.8419,81.36,75,87,7.18,SB,1624662010
17,san jose,37.3394,-121.895,93.09,54,1,1.01,US,1624661749
18,yeppoon,-23.1333,150.7333,65.98,92,99,2.98,AU,1624662011
19,minna,9.6139,6.5569,73.26,91,95,4.59,NG,1624662011
20,lagoa,39.05,-27.9833,66.63,81,60,8.59,PT,1624662012
21,flinders,-34.5833,150.8552,57.38,72,7,4.0,AU,1624662013
22,palauig,15.435,119.9045,81.84,78,76,6.24,PH,1624662013
23,iqaluit,63.7506,-68.5145,41.7,70,87,18.99,CA,1624662013
24,selfoss,63.9331,-20.9971,48.04,92,100,14.2,IS,1624662014
25,thompson,55.7435,-97.8558,68.14,59,88,3.85,CA,1624662014
26,mahebourg,-20.4081,57.7,67.24,80,84,14.63,MU,1624662015
27,grindavik,63.8424,-22.4338,46.9,100,75,21.85,IS,1624662015
28,santa cruz del norte,23.1539,-81.9236,81.59,75,100,16.35,CU,1624662015
29,castro,-24.7911,-50.0119,59.2,88,3,3.47,BR,1624662016
30,puerto ayora,-0.7393,-90.3518,72.55,94,68,7.0,EC,1624662016
31,codrington,-38.2667,141.9667,48.2,76,98,7.4,AU,1624662017
32,hovd,48.0056,91.6419,54.61,39,48,2.86,MN,1624662017
33,arraial do cabo,-22.9661,-42.0278,71.76,82,4,21.68,BR,1624662018
34,atuona,-9.8,-139.0333,79.02,77,16,17.74,PF,1624662018
35,cherskiy,68.75,161.3,62.82,29,23,6.85,RU,1624662019
36,vung tau,10.346,107.0843,80.78,82,88,7.45,VN,1624662019
37,sitka,57.0531,-135.33,55.29,88,90,18.41,US,1624662019
38,broken hill,-31.95,141.4333,46.67,84,12,7.7,AU,1624662020
39,geraldton,-28.7667,114.6,46.81,81,62,14.97,AU,1624662020
40,kahului,20.8947,-156.47,77.02,74,66,4.81,US,1624662021
41,lavrentiya,65.5833,-171.0,39.99,85,100,5.82,RU,1624662021
42,jerecuaro,20.15,-100.5167,61.99,55,72,6.31,MX,1624662022
43,georgetown,5.4112,100.3354,78.89,93,20,0.0,MY,1624661945
44,fairview,40.8126,-73.999,80.64,73,1,5.01,US,1624662013
45,port alfred,-33.5906,26.891,59.04,58,8,13.6,ZA,1624662022
46,ushuaia,-54.8,-68.3,33.69,89,79,7.58,AR,1624662023
47,saint-francois,46.4154,3.9054,57.18,89,0,3.44,FR,1624662023
48,new norfolk,-42.7826,147.0587,46.71,83,82,4.0,AU,1624662024
49,sao felix do xingu,-6.6447,-51.995,75.15,69,19,2.15,BR,1624662024
50,khorramshahr,30.4397,48.1664,97.74,11,0,11.95,IR,1624662025
51,socorro,31.6546,-106.3033,102.38,17,20,23.02,US,1624662025
52,santa cecilia,-26.9608,-50.4269,53.65,99,28,2.48,BR,1624662026
53,upernavik,72.7868,-56.1549,41.49,73,100,19.93,GL,1624662026
54,busselton,-33.65,115.3333,45.05,78,51,10.94,AU,1624662026
55,atar,20.5169,-13.0499,95.4,14,26,5.59,MR,1624662027
56,bethel,41.3712,-73.414,77.72,71,84,6.04,US,1624661941
57,carnarvon,-24.8667,113.6333,59.09,42,58,15.66,AU,1624662027
58,kapaa,22.0752,-159.319,83.48,77,70,4.0,US,1624662028
59,vaini,-21.2,-175.2,72.84,60,62,25.52,TO,1624662028
60,bandarbeyla,9.4942,50.8122,77.02,83,87,30.11,SO,1624662029
61,chuy,-33.6971,-53.4616,51.51,81,68,3.36,UY,1624662030
62,kodiak,57.79,-152.4072,47.62,93,100,12.5,US,1624662030
63,caravelas,-17.7125,-39.2481,69.44,77,11,5.95,BR,1624662031
64,mataura,-46.1927,168.8643,49.48,96,83,1.14,NZ,1624662031
65,saskylakh,71.9167,114.0833,44.29,77,100,10.56,RU,1624662031
66,punta arenas,-53.15,-70.9167,35.11,74,39,18.28,CL,1624662032
67,bredasdorp,-34.5322,20.0403,57.27,71,4,23.78,ZA,1624662033
68,qaqortoq,60.7167,-46.0333,54.1,79,76,5.08,GL,1624662033
69,tayu,-6.5397,111.0518,76.71,88,41,5.44,ID,1624662033
70,rio gallegos,-51.6226,-69.2181,36.77,69,55,31.05,AR,1624662034
71,anau,-16.5167,-151.7333,81.54,76,14,16.13,PF,1624662034
72,butaritari,3.0707,172.7902,82.44,73,100,11.43,KI,1624662035
73,lebu,-37.6167,-73.65,47.32,71,12,11.16,CL,1624662035
74,jamestown,42.097,-79.2353,78.03,62,100,4.0,US,1624661788
75,avarua,-21.2078,-159.775,77.05,94,75,11.5,CK,1624661953
76,kaitangata,-46.2817,169.8464,48.78,93,81,2.91,NZ,1624662036
77,mahajanga,-15.7167,46.3167,71.53,71,28,7.78,MG,1624662037
78,teknaf,20.8624,92.3058,77.85,92,40,9.48,BD,1624662037
79,cape town,-33.9258,18.4232,59.41,68,75,7.0,ZA,1624661863
80,ribeira grande,38.5167,-28.7,68.36,80,68,9.98,PT,1624662038
81,tabou,4.423,-7.3528,74.79,89,99,3.11,CI,1624662039
82,mar del plata,-38.0023,-57.5575,55.87,64,100,8.99,AR,1624662039
83,tuktoyaktuk,69.4541,-133.0374,38.48,83,67,17.67,CA,1624662039
84,pangody,65.85,74.4859,45.63,57,72,8.59,RU,1624662040
85,nuuk,64.1835,-51.7216,43.41,93,75,8.05,GL,1624662040
86,bengkulu,-3.8004,102.2655,74.95,87,37,4.14,ID,1624662041
87,tiksi,71.6872,128.8694,47.68,76,96,10.25,RU,1624662041
88,mabaruma,8.2,-59.7833,75.81,88,94,4.18,GY,1624662042
89,jining,35.405,116.5814,79.0,1,19,8.86,CN,1624662042
90,pakxan,18.3778,103.6601,75.11,93,100,2.44,LA,1624662043
91,sioux lookout,50.1001,-91.917,78.13,37,100,5.21,CA,1624662043
92,sao raimundo nonato,-9.0153,-42.6994,75.38,48,30,3.24,BR,1624661775
93,hilo,19.7297,-155.09,83.8,75,32,4.0,US,1624662044
94,ostrovnoy,68.0531,39.5131,53.17,89,90,11.01,RU,1624662044
95,nichinan,31.6,131.3667,71.76,79,100,5.66,JP,1624662045
96,ancud,-41.8697,-73.8203,43.52,73,46,6.58,CL,1624662045
97,bhadrapur,26.544,88.0944,76.89,91,6,8.37,NP,1624662045
98,morro bay,35.3658,-120.8499,91.18,72,17,14.0,US,1624662046
99,bourges,47.25,2.4167,61.12,87,87,3.13,FR,1624662046
100,auki,-8.7676,160.7034,80.55,82,90,3.02,SB,1624662047
101,ilulissat,69.2167,-51.1,50.02,46,100,14.97,GL,1624662047
102,ponta do sol,32.6667,-17.1,68.0,65,42,3.98,PT,1624662048
103,tasiilaq,65.6145,-37.6368,57.36,54,0,11.95,GL,1624662048
104,amberley,39.2048,-84.428,82.44,74,99,1.99,US,1624662049
105,oussouye,12.485,-16.5469,79.29,84,100,10.89,SN,1624662049
106,yumen,40.2833,97.2,68.27,27,72,7.99,CN,1624662049
107,saint george,37.1041,-113.5841,98.8,14,1,1.01,US,1624662050
108,mehamn,71.0357,27.8492,46.27,89,45,20.4,NO,1624662050
109,pimentel,-6.8367,-79.9342,66.99,82,23,5.01,PE,1624662051
110,bangui,4.3612,18.555,75.33,71,27,0.72,CF,1624662051
111,mount gambier,-37.8333,140.7667,46.92,81,97,5.06,AU,1624662051
112,kangaatsiaq,68.3065,-53.4641,40.86,85,100,9.53,GL,1624662052
113,albany,42.6001,-73.9662,79.0,52,100,7.34,US,1624662009
114,ust-tsilma,65.441,52.1498,51.66,80,95,3.94,RU,1624662052
115,kirovskiy,45.0917,133.5136,69.98,61,11,4.99,RU,1624662053
116,kurumkan,54.3,110.3,67.06,78,96,2.13,RU,1624662053
117,harper,4.375,-7.7169,74.46,88,98,3.76,LR,1624662053
118,arnprior,45.4334,-76.3494,75.88,76,100,6.85,CA,1624661757
119,vrangel,42.7297,133.0839,63.75,80,0,4.68,RU,1624662054
120,bellavista,-7.0561,-76.5911,77.13,70,49,0.81,PE,1624662055
121,kidal,18.4411,1.4078,90.52,25,69,7.76,ML,1624662055
122,celestun,20.8667,-90.4,84.29,67,100,17.74,MX,1624662056
123,sao filipe,14.8961,-24.4956,74.79,81,58,5.19,CV,1624662056
124,hanyang,32.1371,105.5126,67.35,93,100,1.9,CN,1624662057
125,hami,42.8,93.45,74.88,29,39,2.26,CN,1624662057
126,kodinsk,58.6881,99.1844,54.1,98,100,6.67,RU,1624662058
127,mayo,38.8876,-76.5119,82.26,64,78,5.99,US,1624662058
128,komsomolskiy,40.4272,71.7189,73.56,33,35,6.02,UZ,1624662058
129,clyde river,70.4692,-68.5914,34.45,96,100,9.55,CA,1624662059
130,abu samrah,35.3029,37.1841,76.3,52,0,6.58,SY,1624662059
131,hobart,-42.8794,147.3294,47.05,87,20,3.0,AU,1624662059
132,portland,45.5234,-122.6762,96.62,41,7,1.01,US,1624661957
133,margarita,9.3314,-79.8889,83.89,77,93,5.12,PA,1624662060
134,dikson,73.5069,80.5464,31.6,92,56,7.92,RU,1624662060
135,veselynove,47.3567,31.2349,74.79,78,7,7.0,UA,1624662061
136,los llanos de aridane,28.6585,-17.9182,65.95,64,90,11.5,ES,1624662061
137,bluff,-46.6,168.3333,49.8,93,82,8.59,NZ,1624662062
138,seoul,37.5683,126.9778,69.4,91,90,3.44,KR,1624661997
139,ibajay,11.8199,122.162,81.23,78,48,1.39,PH,1624662063
140,narsaq,60.9167,-46.05,53.82,68,90,3.22,GL,1624662063
141,moerai,-22.4333,-151.3333,76.26,87,72,19.08,PF,1624662063
142,araouane,18.9048,-3.5265,90.27,33,37,7.25,ML,1624662064
143,durango,24.8333,-104.8333,84.43,24,79,11.81,MX,1624661973
144,padang,-0.9492,100.3543,76.24,90,100,3.42,ID,1624662064
145,comodoro rivadavia,-45.8667,-67.5,45.86,48,69,20.98,AR,1624662065
146,east london,-33.0153,27.9116,65.21,44,21,17.16,ZA,1624662065
147,fortuna,40.5982,-124.1573,89.19,77,20,16.11,US,1624662065
148,tezu,27.9167,96.1667,74.91,96,87,2.53,IN,1624662066
149,la rioja,42.25,-2.5,61.05,79,90,3.42,ES,1624661897
150,kruisfontein,-34.0033,24.7314,54.88,58,6,8.48,ZA,1624661810
151,guerrero negro,27.9769,-114.0611,72.34,65,3,21.32,MX,1624662067
152,fremont,37.5483,-121.9886,93.2,58,1,17.27,US,1624662067
153,mugur-aksy,50.35,90.5,38.88,84,60,4.23,RU,1624662067
154,faya,18.3851,42.4509,70.66,17,100,0.78,SA,1624662068
155,ayan,56.45,138.1667,52.92,73,0,8.34,RU,1624662068
156,chauk,20.8833,94.8167,78.87,83,71,13.78,MM,1624662068
157,ternate,0.8,127.4,80.71,79,93,2.84,ID,1624662069
158,belyy yar,53.6039,91.3903,53.49,82,0,8.95,RU,1624662069
159,kuznechnoye,61.12,29.8686,69.46,98,99,1.66,RU,1624662070
160,wagar,16.1525,36.2032,82.49,45,91,13.09,SD,1624662070
161,qaanaaq,77.484,-69.3632,39.7,75,79,1.43,GL,1624662071
162,touros,-5.1989,-35.4608,78.21,72,8,18.68,BR,1624662071
163,huoqiu,32.3394,116.2694,74.5,89,100,1.61,CN,1624662071
164,angouleme,45.65,0.15,61.03,76,0,4.61,FR,1624662072
165,necochea,-38.5473,-58.7368,48.04,69,96,10.11,AR,1624662072
166,wamba,8.9333,8.6,75.79,77,35,1.61,NG,1624662072
167,megion,61.0296,76.1136,53.62,70,100,6.53,RU,1624662073
168,hithadhoo,-0.6,73.0833,82.35,67,99,8.12,MV,1624662073
169,vila velha,-20.3297,-40.2925,69.75,83,20,3.44,BR,1624661909
170,jiwani,25.05,61.7417,83.71,80,0,7.47,PK,1624662074
171,laela,-8.5667,32.05,53.96,65,1,3.51,TZ,1624662074
172,baculin,7.4525,126.5842,80.17,81,80,2.68,PH,1624662075
173,turukhansk,65.8167,87.9833,45.52,63,100,15.88,RU,1624662075
174,richards bay,-28.783,32.0377,62.15,74,12,7.0,ZA,1624662076
175,kloulklubed,7.0419,134.2556,84.52,73,97,8.23,PW,1624662076
176,bambous virieux,-20.3428,57.7575,67.21,80,86,15.03,MU,1624662076
177,upington,-28.4478,21.2561,50.18,67,4,10.8,ZA,1624662077
178,emerald,-23.5333,148.1667,59.14,100,90,12.66,AU,1624662077
179,carinhanha,-14.3047,-43.765,73.4,33,0,4.36,BR,1624662077
180,port lincoln,-34.7333,135.8667,52.56,74,98,8.61,AU,1624662078
181,zhuhai,22.2769,113.5678,81.7,89,40,2.3,CN,1624662078
182,kasongo-lunda,-6.4667,16.8167,72.81,45,11,1.54,CD,1624662079
183,khatanga,71.9667,102.5,46.27,51,100,9.95,RU,1624662079
184,illela,13.7292,5.2975,86.56,46,26,10.27,NG,1624662080
185,road town,18.4167,-64.6167,82.2,78,83,17.07,VG,1624662080
186,laguna,38.421,-121.4238,100.2,34,1,5.01,US,1624662080
187,te anau,-45.4167,167.7167,50.4,90,41,0.56,NZ,1624662081
188,mastic beach,40.7668,-72.8521,73.44,77,40,5.01,US,1624662081
189,chernyshevskiy,63.0128,112.4714,65.59,76,99,5.66,RU,1624662082
190,saint-honore,48.5334,-71.0824,63.59,96,100,6.02,CA,1624662082
191,ketchikan,55.3422,-131.6461,70.02,74,84,4.05,US,1624662082
192,tautira,-17.7333,-149.15,84.22,77,38,17.65,PF,1624662083
193,puerto leguizamo,-0.1934,-74.7819,74.01,95,77,2.19,CO,1624662083
194,mae tha,18.4646,99.1403,75.79,93,95,1.05,TH,1624662084
195,chokurdakh,70.6333,147.9167,77.11,27,99,18.5,RU,1624662084
196,hargeysa,9.56,44.065,69.8,62,81,27.2,SO,1624662084
197,sovetskiy,61.3614,63.5842,56.46,64,99,5.23,RU,1624662085
198,oktyabrskiy,54.4815,53.471,69.51,91,100,4.21,RU,1624662085
199,kolpashevo,58.3131,82.9089,48.56,91,100,6.6,RU,1624662086
200,gunjur,13.2019,-16.7339,80.67,94,40,0.0,GM,1624662086
201,hofn,64.2539,-15.2082,50.13,93,100,22.3,IS,1624662086
202,grand gaube,-20.0064,57.6608,67.37,82,56,5.01,MU,1624662087
203,lompoc,34.6391,-120.4579,81.01,71,3,8.01,US,1624661899
204,vilyuysk,63.7553,121.6247,70.47,71,42,3.56,RU,1624662087
205,aklavik,68.2191,-135.0107,55.09,59,82,21.14,CA,1624662088
206,tuatapere,-46.1333,167.6833,49.82,92,83,0.85,NZ,1624662088
207,beringovskiy,63.05,179.3167,39.81,87,30,11.5,RU,1624662088
208,russell,32.3502,-85.1999,85.71,60,27,8.7,US,1624662089
209,jasper,37.2001,-94.3502,92.28,56,28,5.99,US,1624661972
210,havre-saint-pierre,50.2334,-63.5986,68.59,56,1,6.91,CA,1624661917
211,alice springs,-23.7,133.8833,36.95,93,4,0.0,AU,1624662090
212,amapa,1.0,-52.0,70.47,98,42,2.39,BR,1624662090
213,uhlove,44.8215,33.6045,69.82,89,81,2.37,UA,1624662091
214,makakilo city,21.3469,-158.0858,83.68,59,53,3.42,US,1624662091
215,muskegon,43.3,-86.1334,73.74,92,90,0.0,US,1624662075
216,najran,17.4924,44.1277,79.18,15,98,4.99,SA,1624662092
217,juegang,32.3174,121.1855,72.5,91,100,11.36,CN,1624662092
218,san quintin,30.4833,-115.95,70.92,68,1,18.57,MX,1624662093
219,isangel,-19.55,169.2667,76.17,63,20,21.77,VU,1624662093
220,mahon,39.8885,4.2658,68.56,77,0,4.61,ES,1624662093
221,ust-nera,64.5667,143.2,72.03,33,11,4.79,RU,1624662094
222,ahipara,-35.1667,173.1667,62.02,85,98,11.92,NZ,1624662094
223,corinto,37.9407,22.9573,86.85,57,5,2.08,GR,1624662000
224,namibe,-15.1961,12.1522,67.75,68,18,3.31,AO,1624662095
225,ulychne,49.2338,23.6511,60.66,97,60,4.81,UA,1624662095
226,vardo,70.3705,31.1107,47.32,81,41,11.63,NO,1624662096
227,victoria,22.2855,114.1577,81.95,95,94,1.99,HK,1624661948
228,mustasaari,63.1142,21.6822,60.24,88,0,8.05,FI,1624662096
229,almenara,-16.1836,-40.6944,65.44,62,3,0.81,BR,1624662096
230,coquimbo,-29.9533,-71.3436,57.52,80,81,6.42,CL,1624662097
231,talara,-4.5772,-81.2719,66.18,88,97,21.14,PE,1624662097
232,cockburn town,21.4612,-71.1419,80.42,80,98,16.26,TC,1624662098
233,asyut,27.181,31.1837,85.1,27,0,4.85,EG,1624662050
234,zunheboto,25.9667,94.5167,64.76,99,100,1.61,IN,1624662098
235,vieques,18.425,-65.8329,82.44,78,100,11.3,PR,1624662098
236,the valley,18.217,-63.0578,80.1,79,45,18.07,AI,1624662099
237,sobolevo,54.4299,31.8996,63.43,96,100,10.18,RU,1624662099
238,chapais,49.7834,-74.8492,62.38,95,100,10.04,CA,1624662100
239,varhaug,58.6147,5.6457,57.85,93,21,7.27,NO,1624662100
240,buala,-8.145,159.5921,82.81,74,86,5.32,SB,1624662100
241,talnakh,69.4865,88.3972,43.18,67,100,22.5,RU,1624662101
242,kristiansund,63.1115,7.732,53.65,76,90,9.22,NO,1624662101
243,tessalit,20.1986,1.0114,91.15,24,74,7.78,ML,1624662102
244,ingham,42.6,-84.3833,75.15,92,90,6.91,US,1624662102
245,khokhlovo,59.1492,37.3998,67.53,76,27,2.48,RU,1624662102
246,san pedro,14.35,121.0167,83.1,85,94,1.77,PH,1624662103
247,marzuq,14.4,46.4667,77.41,39,43,6.02,YE,1624662103
248,toora-khem,52.4675,96.11,46.94,94,94,1.72,RU,1624662104
249,erenhot,43.6475,111.9767,69.93,51,60,4.45,CN,1624662104
250,gualaceo,-2.9,-78.7833,57.47,86,30,4.68,EC,1624662104
251,poum,-20.2333,164.0167,76.3,66,49,16.13,NC,1624662105
252,sola,-13.8833,167.55,79.07,63,47,22.75,VU,1624662105
253,romny,50.751,33.4747,66.7,94,69,9.15,UA,1624662106
254,paracuru,-3.41,-39.0306,81.1,78,7,11.54,BR,1624662106
255,sarishabari,24.7333,89.8333,80.13,90,88,10.78,BD,1624662107
256,manitouwadge,49.1215,-85.8403,74.17,46,65,6.49,CA,1624662107
257,oyama,36.3,139.8,79.83,72,85,1.99,JP,1624662107
258,ambon,-3.6954,128.1814,75.34,94,20,9.22,ID,1624662108
259,sahuaripa,29.05,-109.2333,103.96,24,6,10.96,MX,1624662071
260,cubuk,40.2386,33.0322,63.77,94,40,3.44,TR,1624662108
261,lata,40.1629,-8.3327,61.81,65,39,1.3,PT,1624662109
262,vila franca do campo,37.7167,-25.4333,66.61,93,100,8.55,PT,1624662109
263,avanigadda,16.0215,80.9181,84.49,62,93,8.32,IN,1624662109
264,hamilton,39.1834,-84.5333,83.12,75,99,3.0,US,1624661954
265,provideniya,64.3833,-173.3,43.92,84,100,4.03,RU,1624662110
266,baiersbronn,48.5,8.3833,57.13,97,13,1.5,DE,1624662110
267,zhigansk,66.7697,123.3711,67.14,61,4,10.42,RU,1624662111
268,avera,33.194,-82.5271,85.68,39,22,4.9,US,1624662111
269,ambilobe,-13.2,49.05,65.05,88,1,3.47,MG,1624662112
270,koslan,63.4564,48.8989,55.0,98,57,3.91,RU,1624662112
271,pemangkat,1.1667,108.9667,77.7,87,90,4.12,ID,1624662112
272,saint-philippe,-21.3585,55.7679,69.35,78,43,6.89,RE,1624662113
273,malanville,11.8685,3.3899,79.3,68,45,11.1,BJ,1624662113
274,sainte-maxime,43.3,6.6333,73.44,74,0,3.83,FR,1624662113
275,meridian,43.6121,-116.3915,93.33,27,32,5.01,US,1624662013
276,ilhabela,-23.7781,-45.3581,70.05,78,38,2.84,BR,1624661905
277,hirara,24.8,125.2833,82.67,94,75,10.36,JP,1624662114
278,cidreira,-30.1811,-50.2056,58.03,72,7,5.19,BR,1624662115
279,praia da vitoria,38.7333,-27.0667,68.76,90,84,7.61,PT,1624662115
280,airai,-8.9266,125.4092,61.36,90,47,3.38,TL,1624662115
281,simao,22.7886,100.9748,65.73,99,100,1.92,CN,1624662116
282,rio grande,-32.035,-52.0986,52.95,71,19,6.46,BR,1624662116
283,orlik,52.5178,99.825,56.01,73,84,4.88,RU,1624662116
284,klaksvik,62.2266,-6.589,50.92,79,93,10.89,FO,1624662117
285,cabo san lucas,22.8909,-109.9124,96.51,71,31,12.59,MX,1624662117
286,kyabe,9.4515,18.9449,79.68,63,17,2.39,TD,1624662118
287,tallahassee,30.4383,-84.2807,78.64,91,75,9.22,US,1624661962
288,uruzgan,32.8333,66.0,68.43,12,0,6.46,AF,1624662118
289,evensk,61.95,159.2333,67.17,53,89,9.91,RU,1624662119
290,okhotsk,59.3833,143.3,62.78,60,71,5.91,RU,1624662119
291,srednekolymsk,67.45,153.6833,75.24,27,58,9.93,RU,1624662119
292,bintulu,3.1667,113.0333,75.15,91,77,5.39,MY,1624662120
293,bosaso,11.2842,49.1816,91.83,40,44,17.45,SO,1624662120
294,nanortalik,60.1432,-45.2371,44.73,79,14,4.27,GL,1624662121
295,donskoye,45.4552,41.9741,75.33,85,1,6.89,RU,1624662121
296,banda aceh,5.5577,95.3222,79.45,80,88,12.21,ID,1624662006
297,mongoumba,3.6415,18.5936,72.63,80,29,1.77,CF,1624662121
298,ciudad bolivar,8.1222,-63.5497,84.4,61,61,5.17,VE,1624662122
299,port shepstone,-30.7414,30.455,64.17,60,7,7.56,ZA,1624662122
300,waingapu,-9.6567,120.2641,77.47,81,33,4.83,ID,1624662123
301,notre-dame-du-lac,47.6136,-68.7964,71.87,56,99,5.46,CA,1624662123
302,haines junction,60.7522,-137.5108,61.41,62,100,10.74,CA,1624662124
303,jumla,29.2747,82.1838,57.45,93,58,2.46,NP,1624662078
304,sur,22.5667,59.5289,86.94,54,0,15.35,OM,1624662124
305,oga,46.4631,10.347,52.36,90,33,3.06,IT,1624662125
306,henties bay,-22.116,14.2845,58.64,76,0,6.78,NA,1624662125
307,amahai,-3.3333,128.9167,79.03,84,74,2.53,ID,1624662126
308,coihaique,-45.5752,-72.0662,39.81,81,20,2.3,CL,1624661940
309,rybinsk,58.0446,38.8426,67.32,88,66,4.05,RU,1624662126
310,sisimiut,66.9395,-53.6735,42.66,86,100,9.6,GL,1624662126
311,itarema,-2.9248,-39.9167,77.52,81,9,8.16,BR,1624662127
312,yarmouth,41.7057,-70.2286,72.45,89,90,8.01,US,1624662127
313,kerugoya,-0.4989,37.2803,58.69,87,100,1.74,KE,1624662128
314,petauke,-14.2426,31.3253,58.08,55,0,4.59,ZM,1624662128
315,longyearbyen,78.2186,15.6401,37.24,87,75,4.61,SJ,1624662128
316,manyoni,-5.7467,34.8382,57.99,70,3,4.32,TZ,1624662129
317,lardos,36.0942,28.0157,84.02,57,0,8.84,GR,1624662129
318,yegros,-26.45,-56.4,63.16,64,92,3.62,PY,1624662130
319,riyadh,24.6877,46.7219,88.97,8,1,4.47,SA,1624662112
320,kandrian,-6.2167,149.55,80.31,84,95,7.54,PG,1624662130
321,yambio,4.5721,28.3955,69.17,75,19,3.09,SS,1624662130
322,nikolskoye,59.7035,30.7861,69.69,98,80,3.04,RU,1624662131
323,algeciras,36.1333,-5.4505,73.17,93,6,10.4,ES,1624662131
324,jaciara,-15.9653,-54.9683,76.21,35,1,3.6,BR,1624662132
325,tilichiki,60.4667,166.1,60.69,64,7,2.33,RU,1624662132
326,antsohihy,-14.8796,47.9875,65.08,79,0,4.76,MG,1624662132
327,qandala,11.472,49.8728,89.19,55,58,6.15,SO,1624662133
328,taoudenni,22.6783,-3.9836,100.87,11,17,7.54,ML,1624662133
329,vostok,46.4856,135.8833,71.15,50,35,4.72,RU,1624662133
330,gariaband,20.635,82.0614,75.34,87,63,4.25,IN,1624662134
331,feodosiya,45.0333,35.3833,71.55,84,8,4.88,UA,1624662134
332,severo-kurilsk,50.6789,156.125,44.33,97,100,5.14,RU,1624662135
333,esperance,-33.8667,121.9,49.44,72,1,9.95,AU,1624662135
334,jhalrapatan,24.55,76.1667,79.88,67,99,8.9,IN,1624662135
335,naryan-mar,67.6713,53.087,46.58,61,9,6.55,RU,1624662136
336,hanko,59.8333,22.95,64.35,88,36,7.38,FI,1624662136
337,mikkeli,61.6886,27.2723,68.11,88,0,3.44,FI,1624662136
338,forest lake,45.2789,-92.9852,86.04,41,100,3.0,US,1624662137
339,barrow,71.2906,-156.7887,37.42,70,90,16.11,US,1624662137
340,dicabisagan,17.0818,122.4157,81.88,76,98,5.19,PH,1624662138
341,mount isa,-20.7333,139.5,51.57,76,1,9.22,AU,1624662057
342,shingu,33.7333,135.9833,73.9,75,100,2.3,JP,1624662138
343,plettenberg bay,-34.0527,23.3716,55.63,64,14,8.77,ZA,1624662138
344,imeni poliny osipenko,52.4201,136.4853,54.52,83,100,4.99,RU,1624662139
345,augusta,48.3667,10.8833,60.06,94,40,3.44,DE,1624661852
346,oranjestad,12.524,-70.027,81.91,81,15,11.01,AW,1624662081
347,jalu,29.0331,21.5482,87.03,27,2,7.72,LY,1624662140
348,anloga,5.7947,0.8973,79.97,81,85,10.38,GH,1624662140
349,gat,31.61,34.7642,81.39,69,0,3.06,IL,1624662140
350,muzhi,65.3667,64.6667,54.73,77,100,4.56,RU,1624662141
351,bozuyuk,39.9078,30.0367,63.66,86,0,5.88,TR,1624662141
352,mogocha,53.7333,119.7667,68.59,69,46,2.04,RU,1624662141
353,dukat,62.55,155.55,65.7,35,81,9.35,RU,1624662142
354,yar-sale,66.8333,70.8333,46.26,52,34,5.77,RU,1624662142
355,letnyaya stavka,45.4306,43.4472,73.09,60,4,5.79,RU,1624662143
356,shanghai,31.2222,121.4581,75.87,98,75,11.18,CN,1624661950
357,cayenne,4.9333,-52.3333,82.09,79,0,4.0,GF,1624662143
358,birao,10.2849,22.7882,79.43,67,58,4.63,CF,1624662144
359,zomin,39.9606,68.3958,65.26,28,73,4.32,UZ,1624662144
360,miandrivazo,-19.5167,45.4667,63.7,62,4,1.01,MG,1624662144
361,faanui,-16.4833,-151.75,81.63,76,15,16.11,PF,1624662145
362,luderitz,-26.6481,15.1594,58.14,73,8,9.57,NA,1624662145
363,pevek,69.7008,170.3133,34.56,80,37,1.54,RU,1624662112
364,rocha,-34.4833,-54.3333,49.78,83,86,3.83,UY,1624662087
365,wabana,47.6332,-52.9481,59.07,60,0,8.43,CA,1624662146
366,belmonte,-15.8631,-38.8828,71.98,72,22,8.05,BR,1624662146
367,kashi,39.4547,75.9797,78.22,22,8,4.18,CN,1624662147
368,norman wells,65.282,-126.8329,72.79,53,69,8.5,CA,1624662147
369,krasnogorskoye,52.2953,86.1979,44.73,92,14,2.86,RU,1624662147
370,honiara,-9.4333,159.95,82.85,73,99,2.35,SB,1624662148
371,ayagoz,47.9714,80.4392,50.18,71,98,3.89,KZ,1624662148
372,chara,56.9064,118.2631,67.91,68,85,1.52,RU,1624662148
373,korla,41.7597,86.1469,71.02,32,57,16.46,CN,1624662149
374,port augusta,-32.5,137.7667,47.71,75,7,2.15,AU,1624662149
375,puerto quijarro,-17.7833,-57.7667,77.86,45,69,1.63,BO,1624662150
376,opuwo,-18.0607,13.84,57.85,40,54,4.25,NA,1624662150
377,salalah,17.0151,54.0924,78.78,85,87,3.47,OM,1624662150
378,petropavlovsk-kamchatskiy,53.0452,158.6483,55.99,51,0,8.95,RU,1624662151
379,menongue,-14.6585,17.691,52.72,48,2,2.93,AO,1624662151
380,grants,35.1473,-107.8514,84.43,15,1,17.27,US,1624662151
381,meulaboh,4.1363,96.1285,75.18,86,94,4.85,ID,1624662152
382,monrovia,6.3005,-10.7969,76.77,94,100,6.26,LR,1624662152
383,kaeo,-35.1,173.7833,60.33,96,96,12.17,NZ,1624662153
384,svidnik,49.3082,21.5703,68.18,97,81,4.45,SK,1624662153
385,frunze,48.6686,38.7544,71.47,47,20,3.85,UA,1624662153
386,babu,24.4167,111.5167,77.77,94,100,2.75,CN,1624662154
387,mantsala,60.6609,25.2838,65.88,93,40,3.44,FI,1624662154
388,coahuayana,18.7333,-103.6833,83.95,72,100,1.97,MX,1624662155
389,tigil,57.8,158.6667,49.06,82,100,5.99,RU,1624662155
390,tual,-5.6667,132.75,81.12,79,100,22.55,ID,1624662155
391,mitsamiouli,-11.3847,43.2844,75.6,69,3,5.48,KM,1624662156
392,leningradskiy,69.3833,178.4167,38.82,65,26,15.59,RU,1624662156
393,hokitika,-42.7167,170.9667,58.15,96,100,7.02,NZ,1624662156
394,pacific grove,36.6177,-121.9166,88.14,80,75,4.0,US,1624662157
395,hauknes,66.2833,14.0667,46.8,80,26,3.74,NO,1624662157
396,olinda,-8.0089,-34.8553,73.13,78,40,13.8,BR,1624662158
397,phangnga,8.4509,98.5298,83.91,92,76,1.41,TH,1624662158
398,wuda,39.4994,106.7117,77.31,41,93,1.97,CN,1624662158
399,makubetsu,45.3714,141.8211,63.01,84,32,22.7,JP,1624662159
400,namatanai,-3.6667,152.4333,82.8,72,98,6.78,PG,1624662159
401,jian,27.1172,114.9793,79.25,92,99,6.35,CN,1624662160
402,natal,-5.795,-35.2094,77.27,74,4,15.73,BR,1624662160
403,sande,53.5049,8.0142,62.83,90,75,4.03,DE,1624662160
404,mezen,65.8522,44.24,55.58,75,100,2.62,RU,1624662161
405,manadhoo,5.7667,73.3833,82.58,76,99,14.25,MV,1624662161
406,kieta,-6.2167,155.6333,83.25,72,41,4.74,PG,1624662162
407,kayes,14.0,-11.0,94.08,30,100,8.48,ML,1624662162
408,chiknayakanhalli,13.4172,76.6228,69.89,79,39,7.83,IN,1624662162
409,lunino,53.5918,45.2271,76.91,83,2,0.51,RU,1624662163
410,christchurch,-43.5333,172.6333,53.33,92,20,1.99,NZ,1624661973
411,ikskile,56.8333,24.5,65.88,99,46,4.29,LV,1624662163
412,kavaratti,10.5669,72.642,82.53,75,71,15.5,IN,1624662164
413,lure,47.75,6.5,58.05,94,0,5.75,FR,1624662164
414,ust-maya,60.4167,134.5333,70.83,55,5,5.17,RU,1624662164
415,acapulco,16.8634,-99.8901,81.18,71,100,7.18,MX,1624662165
416,marsh harbour,26.5412,-77.0636,81.52,75,74,13.73,BS,1624662165
417,rorvik,64.8621,11.2373,49.89,79,46,13.29,NO,1624662166
418,santa fe,-31.6333,-60.7,59.0,83,52,1.99,AR,1624662167
419,mahenge,-8.6833,36.7167,56.34,65,6,1.14,TZ,1624662167
420,pochutla,15.7432,-96.4661,83.82,80,99,4.88,MX,1624662167
421,kalmunai,7.4167,81.8167,79.93,75,46,3.67,LK,1624662168
422,clarksville,36.5298,-87.3595,85.68,72,87,11.41,US,1624662000
423,sambava,-14.2667,50.1667,68.16,85,5,9.62,MG,1624662168
424,magaria,12.9983,8.9099,90.61,32,54,11.45,NE,1624662169
425,maniitsoq,65.4167,-52.9,42.06,89,100,19.01,GL,1624662169
426,puerto narino,-3.7703,-70.3831,74.23,94,66,2.73,CO,1624662170
427,barra velha,-26.6322,-48.6847,66.09,84,76,5.59,BR,1624662025
428,eyrarbakki,63.863,-21.1481,48.2,90,100,15.61,IS,1624662170
429,bom jesus,-9.0744,-44.3586,78.33,40,48,3.53,BR,1624662043
430,lahad datu,5.0268,118.327,78.06,84,29,2.75,MY,1624662171
431,port blair,11.6667,92.75,82.18,79,100,14.7,IN,1624662171
432,praxedis guerrero,31.3667,-106.0167,102.29,14,21,18.54,MX,1624662172
433,alta floresta,-9.8756,-56.0861,79.59,55,86,2.24,BR,1624662172
434,magistralnyy,56.1725,107.4458,62.98,75,59,0.43,RU,1624662172
435,porbandar,21.6422,69.6093,83.55,70,67,18.52,IN,1624662173
436,goure,13.9835,10.2704,90.01,35,71,11.68,NE,1624662173
437,edgewater,28.9889,-80.9023,78.03,74,100,9.13,US,1624662173
438,shahreza,32.0339,51.8794,68.13,15,0,2.24,IR,1624662174
439,umm lajj,25.0213,37.2685,83.3,61,0,8.28,SA,1624662174
440,coffeyville,37.0373,-95.6164,93.49,55,75,18.41,US,1624661925
441,leshukonskoye,64.8989,45.7622,58.55,85,100,3.09,RU,1624662175
442,teahupoo,-17.8333,-149.2667,78.76,78,37,18.03,PF,1624662175
443,vestmannaeyjar,63.4427,-20.2734,49.44,95,100,13.91,IS,1624662175
444,tingo maria,-9.2895,-76.0088,73.35,82,47,1.63,PE,1624662176
445,nyuzen,36.9333,137.5,80.11,68,56,2.71,JP,1624662176
446,shumyachi,53.8583,32.4242,65.16,94,93,4.54,RU,1624662177
447,cabedelo,-6.9811,-34.8339,75.76,81,18,15.95,BR,1624662039
448,terney,45.0503,136.6092,72.88,59,44,3.67,RU,1624662177
449,segovia,41.1667,-4.0,69.44,49,39,4.14,ES,1624662178
450,ca mau,9.1769,105.15,78.17,87,75,3.6,VN,1624662178
451,saldanha,-33.0117,17.9442,59.18,76,48,14.34,ZA,1624662179
452,gap,44.6667,6.0,43.83,78,4,4.47,FR,1624662144
453,churapcha,62.0025,132.4325,73.53,47,44,7.65,RU,1624662179
454,pacifica,37.6138,-122.4869,89.38,75,20,5.99,US,1624662180
455,kuytun,54.3419,101.5036,53.65,77,69,14.63,RU,1624662180
456,thio,-21.6167,166.2167,71.56,80,86,12.71,NC,1624662180
457,kapuskasing,49.4169,-82.4331,77.86,46,76,4.43,CA,1624662181
458,algiers,36.7525,3.042,71.42,83,40,10.36,DZ,1624662054
459,sakakah,29.9697,40.2064,88.16,15,0,6.44,SA,1624662181
460,wajima,37.4,136.9,71.8,79,18,1.59,JP,1624662182
461,jinka,5.65,36.65,65.97,61,96,2.62,ET,1624662182
462,arica,-18.475,-70.3042,60.94,79,79,3.91,CL,1624662150
463,mbandaka,0.0487,18.2603,72.81,81,68,2.15,CD,1624662183
464,sangar,63.9242,127.4739,70.14,53,94,8.1,RU,1624662183
465,diamantino,-14.4086,-56.4461,77.67,42,7,4.68,BR,1624662183
466,aksu,41.1231,80.2644,71.62,32,17,2.73,CN,1624662184
467,agadir,30.4202,-9.5982,66.65,90,3,5.39,MA,1624662184
468,vanavara,60.34,102.2797,61.5,63,98,4.5,RU,1624662185
469,kintinku,-5.8833,35.2333,64.2,62,3,2.8,TZ,1624662185
470,melfi,40.9965,15.6514,69.4,57,17,8.1,IT,1624662185
471,kaihua,23.3687,104.28,67.82,95,100,3.4,CN,1624662186
472,saint-augustin,51.226,-58.6502,59.0,65,99,19.82,CA,1624662186
473,robinson,31.4677,-97.1147,94.6,50,40,7.0,US,1624662187
474,marystown,47.1666,-55.1483,56.55,72,4,6.42,CA,1624662107
475,cururupu,-1.8283,-44.8683,72.37,96,8,3.06,BR,1624662187
476,baykit,61.67,96.37,55.17,99,100,3.09,RU,1624662187
477,cap malheureux,-19.9842,57.6142,67.46,82,52,5.01,MU,1624662068
478,tshane,-24.0196,21.8684,55.09,33,0,4.61,BW,1624662188
479,bhadrachalam,17.6667,80.8833,78.8,79,94,1.52,IN,1624662188
480,viedma,-40.8135,-62.9967,47.05,41,0,9.57,AR,1624662189
481,ios,36.7333,25.2833,84.06,79,0,9.28,GR,1624662189
482,morris,40.8334,-74.5329,79.32,59,75,1.99,US,1624661925
483,paragominas,-2.9667,-47.4833,77.65,72,100,2.8,BR,1624662190
484,pisco,-13.7,-76.2167,63.01,85,11,1.95,PE,1624662190
485,deputatskiy,69.3,139.9,72.84,31,100,10.13,RU,1624662190
486,nador,35.174,-2.9287,70.05,88,75,3.44,MA,1624662191
487,bagdarin,54.4333,113.6,66.76,63,57,1.97,RU,1624662191
488,cairo,30.0626,31.2497,80.71,34,0,8.05,EG,1624661949
489,santiago de cao,-7.9589,-79.2392,64.29,85,68,14.97,PE,1624662192
490,ust-ilimsk,58.0006,102.6619,61.09,59,96,8.34,RU,1624662192
491,dali,25.7,100.1833,65.25,93,100,4.12,CN,1624662192
492,quatre cocos,-20.2078,57.7625,67.08,82,80,14.41,MU,1624662193
493,maceio,-9.6658,-35.7353,72.84,78,40,3.44,BR,1624662073
494,semporna,4.4818,118.6112,80.04,77,44,2.46,MY,1624662193
495,torbay,47.6666,-52.7314,59.27,63,0,6.31,CA,1624662194
496,alexandria,31.2156,29.9553,77.43,77,0,6.82,EG,1624662194
497,slave lake,55.2834,-114.769,74.61,48,88,14.97,CA,1624662011
498,misratah,32.3754,15.0925,79.83,65,0,0.54,LY,1624662012
499,bouna,9.2667,-3.0,73.08,81,63,2.13,CI,1624662195
500,nome,64.5011,-165.4064,56.16,76,90,19.57,US,1624661944
501,shangrao,28.4532,117.9686,78.57,85,96,2.24,CN,1624662195
502,dezhou,37.4486,116.2925,77.14,73,21,12.64,CN,1624662196
503,atmakur,15.8833,78.5833,78.66,67,92,12.24,IN,1624662196
504,lalganj,25.8667,85.1833,71.55,84,100,3.04,IN,1624662196
505,juneau,58.3019,-134.4197,60.84,98,100,5.99,US,1624662076
506,broome,42.2506,-75.833,77.67,59,1,4.0,US,1624662197
507,ormond beach,29.2858,-81.0559,77.09,77,75,9.22,US,1624662046
508,gerash,27.6652,54.1371,83.21,24,0,3.04,IR,1624662198
509,banepa,27.6298,85.5214,68.32,100,75,3.44,NP,1624662198
510,puerto madryn,-42.7692,-65.0385,47.05,51,89,20.74,AR,1624662116
511,college,64.8569,-147.8028,72.09,49,98,1.19,US,1624662199
512,san isidro,-12.1167,-77.05,65.01,91,56,8.03,PE,1624662199
513,ofaqim,31.3141,34.6203,74.73,69,0,3.36,IL,1624662199
514,dryden,49.7833,-92.7503,75.67,45,100,5.7,CA,1624662200
515,owando,-0.4819,15.8999,78.49,59,75,1.05,CG,1624662200
516,luganville,-15.5333,167.1667,80.49,55,14,13.69,VU,1624662200
517,bafoulabe,13.8065,-10.8321,95.11,29,100,3.18,ML,1624662201
518,dunedin,-45.8742,170.5036,52.81,92,88,1.01,NZ,1624662201
519,beboto,8.2668,16.939,76.77,60,13,3.2,TD,1624662202
520,carthage,36.8611,10.3316,80.46,69,20,5.75,TN,1624661931
521,baijiantan,45.6333,85.1833,62.42,48,84,0.4,CN,1624662202
522,vila,42.0304,-8.1588,60.75,75,91,3.04,PT,1624662203
523,portales,34.1862,-103.3344,99.59,17,51,5.99,US,1624662203
524,taltal,-25.4,-70.4833,58.33,84,93,3.06,CL,1624662203
525,cadillac,44.2519,-85.4012,74.16,83,90,0.0,US,1624662058
526,bilibino,68.0546,166.4372,61.84,45,7,0.2,RU,1624662204
527,dillon,34.4166,-79.3712,82.26,75,73,5.61,US,1624662204
528,willmar,45.1219,-95.0433,85.95,34,1,5.75,US,1624662102
529,sao jose da coroa grande,-8.8978,-35.1478,74.12,83,41,11.61,BR,1624662205
530,chifeng,42.2683,118.9636,65.19,83,100,2.48,CN,1624662205
531,kirkwall,58.9848,-2.9587,50.34,81,90,12.66,GB,1624662205
532,brasilia de minas,-16.2064,-44.4333,66.78,43,1,6.08,BR,1624662206
533,isla vista,34.4133,-119.861,89.67,56,1,9.22,US,1624662206
534,mayumba,-3.432,10.6554,73.6,90,96,5.79,GA,1624662207
535,devils lake,48.1128,-98.8651,60.94,93,90,3.44,US,1624662207
536,awjilah,29.1081,21.2869,87.35,27,1,9.1,LY,1624662207
537,dombarovskiy,50.7587,59.5386,69.84,70,28,5.99,RU,1624662208
538,kolomna,55.0794,38.7783,73.02,90,21,3.47,RU,1624662208
539,darnah,32.767,22.6367,80.96,55,0,13.11,LY,1624661942
540,subate,56.0062,25.9076,63.3,98,70,1.66,LV,1624662209
541,oytal,42.9057,73.2697,57.78,54,9,2.84,KZ,1624662209
542,asau,46.4333,26.4,62.22,77,73,6.31,RO,1624662210
543,pathein,16.7833,94.7333,76.6,93,99,3.74,MM,1624662210
544,straoane,45.9333,27.05,66.47,63,55,5.82,RO,1624662210
545,merauke,-8.4667,140.3333,78.06,78,87,11.21,ID,1624662211
546,vanimo,-2.6741,141.3028,79.29,83,92,4.27,PG,1624662076
547,pionerskiy,54.9508,20.2275,64.74,71,7,10.56,RU,1624662212
548,thinadhoo,0.5333,72.9333,82.96,71,100,9.69,MV,1624662212
549,inuvik,68.3499,-133.7218,64.6,51,56,17.25,CA,1624662213
550,belaya gora,68.5333,146.4167,78.19,25,11,11.07,RU,1624662213
551,alofi,-19.0595,-169.9187,74.71,75,61,24.92,NU,1624662213
552,souillac,-20.5167,57.5167,67.35,82,75,11.43,MU,1624662214
553,bonanza,14.0289,-84.591,77.49,84,95,1.9,NI,1624662214
554,luau,-10.7073,22.2247,61.5,49,8,4.92,AO,1624662214
555,isabela,6.7085,121.9711,79.52,82,94,3.8,PH,1624662215
556,batticaloa,7.7102,81.6924,79.18,74,41,7.31,LK,1624662215
